{
  "type": "FeatureCollection",
  "features": [
    {
      "type": "Feature",
      "properties": {
        "round": 1,
        "name": "Australian Grand Prix",
        "circuit": "Albert Park Circuit",
        "location": "Melbourne",
        "country": "Australia",
        "date": "March 6-8",
        "sprint": false
      },
      "geometry": {
        "type": "Point",
        "coordinates": [144.968, -37.8497]
      }
    },
    {
      "type": "Feature",
      "properties": {
        "round": 2,
        "name": "Chinese Grand Prix",
        "circuit": "Shanghai International Circuit",
        "location": "Shanghai",
        "country": "China",
        "date": "March 13-15",
        "sprint": true
      },
      "geometry": {
        "type": "Point",
        "coordinates": [121.2197, 31.3389]
      }
    },
    {
      "type": "Feature",
      "properties": {
        "round": 3,
        "name": "Japanese Grand Prix",
        "circuit": "Suzuka International Racing Course",
        "location": "Suzuka",
        "country": "Japan",
        "date": "March 27-29",
        "sprint": false
      },
      "geometry": {
        "type": "Point",
        "coordinates": [136.541, 34.843]
      }
    },
    {
      "type": "Feature",
      "properties": {
        "round": 4,
        "name": "Bahrain Grand Prix",
        "circuit": "Bahrain International Circuit",
        "location": "Sakhir",
        "country": "Bahrain",
        "date": "April 10-12",
        "sprint": false
      },
      "geometry": {
        "type": "Point",
        "coordinates": [50.5112, 26.0325]
      }
    },
    {
      "type": "Feature",
      "properties": {
        "round": 5,
        "name": "Saudi Arabian Grand Prix",
        "circuit": "Jeddah Corniche Circuit",
        "location": "Jeddah",
        "country": "Saudi Arabia",
        "date": "April 17-19",
        "sprint": false
      },
      "geometry": {
        "type": "Point",
        "coordinates": [39.1044, 21.6319]
      }
    },
    {
      "type": "Feature",
      "properties": {
        "round": 6,
        "name": "Miami Grand Prix",
        "circuit": "Miami International Autodrome",
        "location": "Miami",
        "country": "USA",
        "date": "May 1-3",
        "sprint": true
      },
      "geometry": {
        "type": "Point",
        "coordinates": [-80.238, 25.958]
      }
    },
    {
      "type": "Feature",
      "properties": {
        "round": 7,
        "name": "Canadian Grand Prix",
        "circuit": "Circuit Gilles-Villeneuve",
        "location": "Montreal",
        "country": "Canada",
        "date": "May 22-24",
        "sprint": false
      },
      "geometry": {
        "type": "Point",
        "coordinates": [-73.522, 45.501]
      }
    },
    {
      "type": "Feature",
      "properties": {
        "round": 8,
        "name": "Monaco Grand Prix",
        "circuit": "Circuit de Monaco",
        "location": "Monte Carlo",
        "country": "Monaco",
        "date": "June 5-7",
        "sprint": false
      },
      "geometry": {
        "type": "Point",
        "coordinates": [7.421, 43.735]
      }
    },
    {
      "type": "Feature",
      "properties": {
        "round": 9,
        "name": "Spanish Grand Prix",
        "circuit": "Circuit de Barcelona-Catalunya",
        "location": "Barcelona",
        "country": "Spain",
        "date": "June 12-14",
        "sprint": false
      },
      "geometry": {
        "type": "Point",
        "coordinates": [2.261, 41.57]
      }
    },
    {
      "type": "Feature",
      "properties": {
        "round": 10,
        "name": "Austrian Grand Prix",
        "circuit": "Red Bull Ring",
        "location": "Spielberg",
        "country": "Austria",
        "date": "June 26-28",
        "sprint": false
      },
      "geometry": {
        "type": "Point",
        "coordinates": [14.765, 47.22]
      }
    },
    {
      "type": "Feature",
      "properties": {
        "round": 11,
        "name": "British Grand Prix",
        "circuit": "Silverstone Circuit",
        "location": "Silverstone",
        "country": "United Kingdom",
        "date": "July 3-5",
        "sprint": true
      },
      "geometry": {
        "type": "Point",
        "coordinates": [-1.016, 52.078]
      }
    },
    {
      "type": "Feature",
      "properties": {
        "round": 12,
        "name": "Belgian Grand Prix",
        "circuit": "Circuit de Spa-Francorchamps",
        "location": "Spa",
        "country": "Belgium",
        "date": "July 17-19",
        "sprint": false
      },
      "geometry": {
        "type": "Point",
        "coordinates": [5.971, 50.437]
      }
    },
    {
      "type": "Feature",
      "properties": {
        "round": 13,
        "name": "Hungarian Grand Prix",
        "circuit": "Hungaroring",
        "location": "Budapest",
        "country": "Hungary",
        "date": "July 24-26",
        "sprint": false
      },
      "geometry": {
        "type": "Point",
        "coordinates": [19.251, 47.582]
      }
    },
    {
      "type": "Feature",
      "properties": {
        "round": 14,
        "name": "Dutch Grand Prix",
        "circuit": "Circuit Zandvoort",
        "location": "Zandvoort",
        "country": "Netherlands",
        "date": "August 21-23",
        "sprint": true
      },
      "geometry": {
        "type": "Point",
        "coordinates": [4.541, 52.389]
      }
    },
    {
      "type": "Feature",
      "properties": {
        "round": 15,
        "name": "Italian Grand Prix",
        "circuit": "Autodromo Nazionale Monza",
        "location": "Monza",
        "country": "Italy",
        "date": "September 4-6",
        "sprint": false
      },
      "geometry": {
        "type": "Point",
        "coordinates": [9.293, 45.621]
      }
    },
    {
      "type": "Feature",
      "properties": {
        "round": 16,
        "name": "Madrid Grand Prix",
        "circuit": "IFEMA Madrid Circuit",
        "location": "Madrid",
        "country": "Spain",
        "date": "September 11-13",
        "sprint": false,
        "note": "New circuit for 2026"
      },
      "geometry": {
        "type": "Point",
        "coordinates": [-3.615, 40.465]
      }
    },
    {
      "type": "Feature",
      "properties": {
        "round": 17,
        "name": "Azerbaijan Grand Prix",
        "circuit": "Baku City Circuit",
        "location": "Baku",
        "country": "Azerbaijan",
        "date": "September 25-27",
        "sprint": false,
        "note": "Race held on Saturday"
      },
      "geometry": {
        "type": "Point",
        "coordinates": [49.853, 40.369]
      }
    },
    {
      "type": "Feature",
      "properties": {
        "round": 18,
        "name": "Singapore Grand Prix",
        "circuit": "Marina Bay Street Circuit",
        "location": "Singapore",
        "country": "Singapore",
        "date": "October 9-11",
        "sprint": true
      },
      "geometry": {
        "type": "Point",
        "coordinates": [103.864, 1.291]
      }
    },
    {
      "type": "Feature",
      "properties": {
        "round": 19,
        "name": "United States Grand Prix",
        "circuit": "Circuit of the Americas",
        "location": "Austin",
        "country": "USA",
        "date": "October 23-25",
        "sprint": false
      },
      "geometry": {
        "type": "Point",
        "coordinates": [-97.641, 30.132]
      }
    },
    {
      "type": "Feature",
      "properties": {
        "round": 20,
        "name": "Mexico City Grand Prix",
        "circuit": "Autodromo Hermanos Rodriguez",
        "location": "Mexico City",
        "country": "Mexico",
        "date": "October 30 - November 1",
        "sprint": false
      },
      "geometry": {
        "type": "Point",
        "coordinates": [-99.09, 19.405]
      }
    },
    {
      "type": "Feature",
      "properties": {
        "round": 21,
        "name": "Sao Paulo Grand Prix",
        "circuit": "Autodromo Jose Carlos Pace",
        "location": "Sao Paulo",
        "country": "Brazil",
        "date": "November 6-8",
        "sprint": false
      },
      "geometry": {
        "type": "Point",
        "coordinates": [-46.697, -23.703]
      }
    },
    {
      "type": "Feature",
      "properties": {
        "round": 22,
        "name": "Las Vegas Grand Prix",
        "circuit": "Las Vegas Strip Circuit",
        "location": "Las Vegas",
        "country": "USA",
        "date": "November 19-21",
        "sprint": false
      },
      "geometry": {
        "type": "Point",
        "coordinates": [-115.158, 36.148]
      }
    },
    {
      "type": "Feature",
      "properties": {
        "round": 23,
        "name": "Qatar Grand Prix",
        "circuit": "Lusail International Circuit",
        "location": "Lusail",
        "country": "Qatar",
        "date": "November 27-29",
        "sprint": true
      },
      "geometry": {
        "type": "Point",
        "coordinates": [51.447, 25.49]
      }
    },
    {
      "type": "Feature",
      "properties": {
        "round": 24,
        "name": "Abu Dhabi Grand Prix",
        "circuit": "Yas Marina Circuit",
        "location": "Abu Dhabi",
        "country": "United Arab Emirates",
        "date": "December 4-6",
        "sprint": false
      },
      "geometry": {
        "type": "Point",
        "coordinates": [54.603, 24.467]
      }
    }
  ]
}   