[{"name":"Albert Park Grand Prix Circuit","location":"Melbourne","country":"Australia","latitude":-37.8497,"longitude":144.968},{"name":"Sepang International Circuit","location":"Kuala Lumpur","country":"Malaysia","latitude":2.76083,"longitude":101.738},{"name":"Bahrain International Circuit","location":"Sakhir","country":"Bahrain","latitude":26.0325,"longitude":50.5106},{"name":"Circuit de Barcelona-Catalunya","location":"Montmel\u00f3","country":"Spain","latitude":41.57,"longitude":2.26111},{"name":"Istanbul Park","location":"Istanbul","country":"Turkey","latitude":40.9517,"longitude":29.405},{"name":"Circuit de Monaco","location":"Monte-Carlo","country":"Monaco","latitude":43.7347,"longitude":7.42056},{"name":"Circuit Gilles Villeneuve","location":"Montreal","country":"Canada","latitude":45.5,"longitude":-73.5228},{"name":"Circuit de Nevers Magny-Cours","location":"Magny Cours","country":"France","latitude":46.8642,"longitude":3.16361},{"name":"Silverstone Circuit","location":"Silverstone","country":"UK","latitude":52.0786,"longitude":-1.01694},{"name":"Hockenheimring","location":"Hockenheim","country":"Germany","latitude":49.3278,"longitude":8.56583},{"name":"Hungaroring","location":"Budapest","country":"Hungary","latitude":47.5789,"longitude":19.2486},{"name":"Valencia Street Circuit","location":"Valencia","country":"Spain","latitude":39.4589,"longitude":-0.331667},{"name":"Circuit de Spa-Francorchamps","location":"Spa","country":"Belgium","latitude":50.4372,"longitude":5.97139},{"name":"Autodromo Nazionale di Monza","location":"Monza","country":"Italy","latitude":45.6156,"longitude":9.28111},{"name":"Marina Bay Street Circuit","location":"Marina Bay","country":"Singapore","latitude":1.2914,"longitude":103.864},{"name":"Fuji Speedway","location":"Oyama","country":"Japan","latitude":35.3717,"longitude":138.927},{"name":"Shanghai International Circuit","location":"Shanghai","country":"China","latitude":31.3389,"longitude":121.22},{"name":"Aut\u00f3dromo Jos\u00e9 Carlos Pace","location":"S\u00e3o Paulo","country":"Brazil","latitude":-23.7036,"longitude":-46.6997},{"name":"Indianapolis Motor Speedway","location":"Indianapolis","country":"USA","latitude":39.795,"longitude":-86.2347},{"name":"N\u00fcrburgring","location":"N\u00fcrburg","country":"Germany","latitude":50.3356,"longitude":6.9475},{"name":"Autodromo Enzo e Dino Ferrari","location":"Imola","country":"Italy","latitude":44.3439,"longitude":11.7167},{"name":"Suzuka Circuit","location":"Suzuka","country":"Japan","latitude":34.8431,"longitude":136.541},{"name":"Las Vegas Strip Street Circuit","location":"Las Vegas","country":"United States","latitude":36.1147,"longitude":-115.173},{"name":"Yas Marina Circuit","location":"Abu Dhabi","country":"UAE","latitude":24.4672,"longitude":54.6031},{"name":"Aut\u00f3dromo Juan y Oscar G\u00e1lvez","location":"Buenos Aires","country":"Argentina","latitude":-34.6943,"longitude":-58.4593},{"name":"Circuito de Jerez","location":"Jerez de la Frontera","country":"Spain","latitude":36.7083,"longitude":-6.03417},{"name":"Aut\u00f3dromo do Estoril","location":"Estoril","country":"Portugal","latitude":38.7506,"longitude":-9.39417},{"name":"Okayama International Circuit","location":"Okayama","country":"Japan","latitude":34.915,"longitude":134.221},{"name":"Adelaide Street Circuit","location":"Adelaide","country":"Australia","latitude":-34.9272,"longitude":138.617},{"name":"Kyalami","location":"Midrand","country":"South Africa","latitude":-25.9894,"longitude":28.0767},{"name":"Donington Park","location":"Castle Donington","country":"UK","latitude":52.8306,"longitude":-1.37528},{"name":"Aut\u00f3dromo Hermanos Rodr\u00edguez","location":"Mexico City","country":"Mexico","latitude":19.4042,"longitude":-99.0907},{"name":"Phoenix street circuit","location":"Phoenix","country":"USA","latitude":33.4479,"longitude":-112.075},{"name":"Circuit Paul Ricard","location":"Le Castellet","country":"France","latitude":43.2506,"longitude":5.79167},{"name":"Korean International Circuit","location":"Yeongam County","country":"Korea","latitude":34.7333,"longitude":126.417},{"name":"Aut\u00f3dromo Internacional Nelson Piquet","location":"Rio de Janeiro","country":"Brazil","latitude":-22.9756,"longitude":-43.395},{"name":"Detroit Street Circuit","location":"Detroit","country":"USA","latitude":42.3298,"longitude":-83.0401},{"name":"Brands Hatch","location":"Kent","country":"UK","latitude":51.3569,"longitude":0.263056},{"name":"Circuit Park Zandvoort","location":"Zandvoort","country":"Netherlands","latitude":52.3888,"longitude":4.54092},{"name":"Zolder","location":"Heusden-Zolder","country":"Belgium","latitude":50.9894,"longitude":5.25694},{"name":"Dijon-Prenois","location":"Dijon","country":"France","latitude":47.3625,"longitude":4.89913},{"name":"Fair Park","location":"Dallas","country":"USA","latitude":32.7774,"longitude":-96.7587},{"name":"Long Beach","location":"California","country":"USA","latitude":33.7651,"longitude":-118.189},{"name":"Las Vegas Street Circuit","location":"Nevada","country":"USA","latitude":36.1162,"longitude":-115.174},{"name":"Jarama","location":"Madrid","country":"Spain","latitude":40.6171,"longitude":-3.58558},{"name":"Watkins Glen","location":"New York State","country":"USA","latitude":42.3369,"longitude":-76.9272},{"name":"Scandinavian Raceway","location":"Anderstorp","country":"Sweden","latitude":57.2653,"longitude":13.6042},{"name":"Mosport International Raceway","location":"Ontario","country":"Canada","latitude":44.0481,"longitude":-78.6756},{"name":"Montju\u00efc","location":"Barcelona","country":"Spain","latitude":41.3664,"longitude":2.15167},{"name":"Nivelles-Baulers","location":"Brussels","country":"Belgium","latitude":50.6211,"longitude":4.32694},{"name":"Charade Circuit","location":"Clermont-Ferrand","country":"France","latitude":45.7472,"longitude":3.03889},{"name":"Circuit Mont-Tremblant","location":"Quebec","country":"Canada","latitude":46.1877,"longitude":-74.6099},{"name":"Rouen-Les-Essarts","location":"Rouen","country":"France","latitude":49.3306,"longitude":1.00458},{"name":"Le Mans","location":"Le Mans","country":"France","latitude":47.95,"longitude":0.224231},{"name":"Reims-Gueux","location":"Reims","country":"France","latitude":49.2542,"longitude":3.93083},{"name":"Prince George Circuit","location":"Eastern Cape Province","country":"South Africa","latitude":-33.0486,"longitude":27.8736},{"name":"Zeltweg","location":"Styria","country":"Austria","latitude":47.2039,"longitude":14.7478},{"name":"Aintree","location":"Liverpool","country":"UK","latitude":53.4769,"longitude":-2.94056},{"name":"Circuito da Boavista","location":"Oporto","country":"Portugal","latitude":41.1705,"longitude":-8.67325},{"name":"Riverside International Raceway","location":"California","country":"USA","latitude":33.937,"longitude":-117.273},{"name":"AVUS","location":"Berlin","country":"Germany","latitude":52.4806,"longitude":13.2514},{"name":"Monsanto Park Circuit","location":"Lisbon","country":"Portugal","latitude":38.7197,"longitude":-9.20306},{"name":"Sebring International Raceway","location":"Florida","country":"USA","latitude":27.4547,"longitude":-81.3483},{"name":"Ain Diab","location":"Casablanca","country":"Morocco","latitude":33.5786,"longitude":-7.6875},{"name":"Pescara Circuit","location":"Pescara","country":"Italy","latitude":42.475,"longitude":14.1508},{"name":"Circuit Bremgarten","location":"Bern","country":"Switzerland","latitude":46.9589,"longitude":7.40194},{"name":"Circuit de Pedralbes","location":"Barcelona","country":"Spain","latitude":41.3903,"longitude":2.11667},{"name":"Buddh International Circuit","location":"Uttar Pradesh","country":"India","latitude":28.3487,"longitude":77.5331},{"name":"Circuit of the Americas","location":"Austin","country":"USA","latitude":30.1328,"longitude":-97.6411},{"name":"Red Bull Ring","location":"Spielberg","country":"Austria","latitude":47.2197,"longitude":14.7647},{"name":"Sochi Autodrom","location":"Sochi","country":"Russia","latitude":43.4057,"longitude":39.9578},{"name":"Baku City Circuit","location":"Baku","country":"Azerbaijan","latitude":40.3725,"longitude":49.8533},{"name":"Aut\u00f3dromo Internacional do Algarve","location":"Portim\u00e3o","country":"Portugal","latitude":37.227,"longitude":-8.6267},{"name":"Autodromo Internazionale del Mugello","location":"Mugello","country":"Italy","latitude":43.9975,"longitude":11.3719},{"name":"Jeddah Corniche Circuit","location":"Jeddah","country":"Saudi Arabia","latitude":21.6319,"longitude":39.1044},{"name":"Losail International Circuit","location":"Al Daayen","country":"Qatar","latitude":25.49,"longitude":51.4542},{"name":"Miami International Autodrome","location":"Miami","country":"USA","latitude":25.9581,"longitude":-80.2389}]